[
  {
    "id": "3110031",
    "name": "North District Town Hall (Auditorium)",
    "latitude": 22.501639,
    "longitude": 114.128911,
    "eventCount": 14
  },
  {
    "id": "35510043",
    "name": "Tai Po Civic Centre (Auditorium)",
    "latitude": 22.45175,
    "longitude": 114.16815,
    "eventCount": 3
  },
  {
    "id": "36310037",
    "name": "Sha Tin Town Hall (Exhibition Gallery)",
    "latitude": 22.38136,
    "longitude": 114.1899,
    "eventCount": 3
  },
  {
    "id": "50110014",
    "name": "Hong Kong Cultural Centre (Concert Hall)",
    "latitude": 22.29386,
    "longitude": 114.17053,
    "eventCount": 14
  },
  {
    "id": "75010017",
    "name": "Hong Kong Film Archive (Cinema)",
    "latitude": 22.285056,
    "longitude": 114.222075,
    "eventCount": 11
  },
  {
    "id": "76810048",
    "name": "Tuen Mun Town Hall (Auditorium)",
    "latitude": 22.39181,
    "longitude": 113.976771,
    "eventCount": 21
  },
  {
    "id": "826817417",
    "name": "East Kowloon Cultural Centre (The Hall)",
    "latitude": 22.32427,
    "longitude": 114.21494,
    "eventCount": 3
  },
  {
    "id": "87310051",
    "name": "Yuen Long Theatre (Auditorium)",
    "latitude": 22.44152,
    "longitude": 114.02289,
    "eventCount": 8
  },
  {
    "id": "87410028",
    "name": "Ngau Chi Wan Civic Centre (Cultural Activities Hall)",
    "latitude": 22.334583,
    "longitude": 114.208766,
    "eventCount": 9
  },
  {
    "id": "87510008",
    "name": "Hong Kong City Hall (Concert Hall)",
    "latitude": 22.282279,
    "longitude": 114.161545,
    "eventCount": 11
  }
]